City_ID,City,Lat,Lng,Max Temp,Humidity,Cloudiness,Wind Speed,Country,Date
0,puerto ayora,-0.7393,-90.3518,29.98,88,91,4.02,EC,1675885254
1,iskateley,67.6803,53.1512,-4.01,82,100,7.24,RU,1675885376
2,manokwari,-0.8667,134.0833,25.18,83,100,5.21,ID,1675885377
3,rikitea,-23.1203,-134.9692,26.39,74,46,6.12,PF,1675885377
4,kapaa,22.0752,-159.319,25.18,79,0,7.72,US,1675885377
5,punta arenas,-53.15,-70.9167,20.01,82,100,10.8,CL,1675885369
6,norman wells,65.282,-126.8329,-26.98,76,75,2.57,CA,1675885378
7,lubao,14.9167,120.55,24.04,80,100,3.41,PH,1675885378
8,port alfred,-33.5906,26.891,20.66,91,100,0.45,ZA,1675885379
9,chuy,-33.6971,-53.4616,26.61,66,100,4.29,UY,1675885379
10,paamiut,61.994,-49.6678,-3.2,95,100,12.95,GL,1675885380
11,deputatskiy,69.3,139.9,-42.95,99,90,1.97,RU,1675885380
12,ambilobe,-13.2,49.05,23.03,96,100,0.92,MG,1675885381
13,faanui,-16.4833,-151.75,26.9,74,22,5.01,PF,1675885381
14,hilo,19.7297,-155.09,23.12,86,100,0.89,US,1675885382
15,ola,59.5833,151.2833,-28.4,87,55,3.39,RU,1675885383
16,grindavik,63.8424,-22.4338,-2.03,80,75,14.92,IS,1675885384
17,yellowknife,62.456,-114.3525,-24.71,84,20,2.57,CA,1675885386
18,polson,47.6936,-114.1632,2.62,71,100,3.13,US,1675885387
19,saint george,37.1041,-113.5841,10.8,41,0,1.34,US,1675885255
20,qaanaaq,77.484,-69.3632,-32.34,67,16,2.77,GL,1675885388
21,luanda,-8.8368,13.2343,25.86,75,54,6.22,AO,1675885389
22,lekoni,-1.5843,14.2591,29.22,43,83,0.51,GA,1675885390
23,fort frances,48.5999,-93.4003,4.12,77,0,3.6,CA,1675885392
24,hobart,-42.8794,147.3294,13.36,82,100,1.36,AU,1675885253
25,tarko-sale,64.9225,77.785,-15.61,95,100,8.98,RU,1675885393
26,high level,58.5169,-117.136,-15.94,92,20,3.09,CA,1675885399
27,ancud,-41.8697,-73.8203,18.45,74,12,4.18,CL,1675885411
28,iqaluit,63.7506,-68.5145,-27.15,63,75,6.69,CA,1675885415
29,busselton,-33.65,115.3333,14.69,90,2,4.83,AU,1675885416
30,pisco,-13.7,-76.2167,26.03,69,0,3.09,PE,1675885416
31,charlottesville,38.0293,-78.4767,20.78,45,0,2.24,US,1675885200
32,bethel,41.3712,-73.414,10.66,52,0,3.09,US,1675885417
33,doha,25.2867,51.5333,18.99,59,0,8.23,QA,1675885162
34,broome,42.2506,-75.833,8.09,56,0,4.12,US,1675885418
35,dingle,10.9995,122.6711,22.7,91,100,3.43,PH,1675885418
36,inirida,3.8653,-67.9239,32.49,50,45,1.09,CO,1675885419
37,leshukonskoye,64.8989,45.7622,-5.77,91,16,4.26,RU,1675885419
38,novoselytsya,48.2193,26.2653,-7.68,95,7,1.07,UA,1675885420
39,new norfolk,-42.7826,147.0587,13.72,66,100,0.66,AU,1675885421
40,bambous virieux,-20.3428,57.7575,26.23,83,75,3.6,MU,1675885421
41,cabedelo,-6.9811,-34.8339,30.37,71,100,5.98,BR,1675885421
42,basco,20.4487,121.9702,24.09,77,99,8.92,PH,1675885422
43,trelew,-43.249,-65.3051,33.8,15,81,7.62,AR,1675885353
44,ushuaia,-54.8,-68.3,21.81,40,75,2.57,AR,1675885180
45,abu kamal,34.4506,40.9171,5.94,47,1,4.12,SY,1675885422
46,murgab,37.4966,61.9714,8.93,66,75,6.17,TM,1675885423
47,progreso,21.2833,-89.6667,33.06,52,14,5.22,MX,1675885298
48,byron bay,-28.65,153.6167,18.86,81,59,3.57,AU,1675885423
49,jojoima,7.8792,-10.7878,26.62,66,87,2.54,SL,1675885424
50,mataura,-46.1927,168.8643,9.15,89,94,3.57,NZ,1675885424
51,nemuro,43.3236,145.575,-6.14,80,24,3.66,JP,1675885424
52,constitucion,-35.3333,-72.4167,21.59,59,13,5.97,CL,1675885425
53,jamestown,42.097,-79.2353,4.97,60,0,2.06,US,1675885281
54,seoul,37.5683,126.9778,-3.31,74,0,1.03,KR,1675884847
55,koslan,63.4564,48.8989,-4.13,94,100,3.88,RU,1675885425
56,mahebourg,-20.4081,57.7,26.25,83,75,3.6,MU,1675885426
57,tiksi,71.6872,128.8694,-40.11,99,56,2.58,RU,1675885426
58,albany,42.6001,-73.9662,8.15,52,10,1.79,US,1675885427
59,padang,-0.9492,100.3543,23.03,88,100,2.07,ID,1675885427
60,sibiti,-3.6819,13.3499,21.76,88,62,0.2,CG,1675885428
61,tuktoyaktuk,69.4541,-133.0374,-37.0,74,20,2.06,CA,1675885257
62,khatanga,71.9667,102.5,-43.04,100,63,2.02,RU,1675885428
63,ylivieska,64.0833,24.55,1.29,87,100,7.62,FI,1675885429
64,bathsheba,13.2167,-59.5167,29.34,65,20,8.75,BB,1675885429
65,clyde river,70.4692,-68.5914,-34.87,75,20,2.06,CA,1675885429
66,castro,-24.7911,-50.0119,27.2,50,7,1.39,BR,1675885430
67,halifax,44.6453,-63.5724,4.56,69,100,8.23,CA,1675884935
68,cabo san lucas,22.8909,-109.9124,27.01,39,0,3.6,MX,1675885156
69,cape town,-33.9258,18.4232,24.1,63,0,5.81,ZA,1675885316
70,yarada,17.65,83.2667,23.18,100,20,1.03,IN,1675885431
71,tasiilaq,65.6145,-37.6368,-15.91,51,0,4.97,GL,1675885232
72,hermanus,-34.4187,19.2345,21.0,73,0,6.91,ZA,1675885252
73,omboue,-1.5746,9.2618,26.24,85,47,2.49,GA,1675885431
74,nanortalik,60.1432,-45.2371,-0.78,83,100,4.07,GL,1675885432
75,talara,-4.5772,-81.2719,31.42,48,0,7.72,PE,1675885432
76,voh,-20.9667,164.7,25.62,90,100,1.35,NC,1675885433
77,axim,4.8699,-2.2405,26.38,81,100,2.62,GH,1675885433
78,henties bay,-22.116,14.2845,18.44,85,61,3.2,NA,1675885433
79,mar del plata,-38.0023,-57.5575,30.46,56,0,2.57,AR,1675885427
80,rocha,-34.4833,-54.3333,24.83,67,99,6.68,UY,1675885288
81,avarua,-21.2078,-159.775,28.03,78,40,5.66,CK,1675885434
82,victoria,22.2855,114.1577,18.31,89,100,4.47,HK,1675885401
83,meulaboh,4.1363,96.1285,24.5,87,100,1.37,ID,1675885435
84,west bay,19.3667,-81.4167,28.89,76,40,7.2,KY,1675885435
85,katsuura,35.1333,140.3,7.01,64,26,7.26,JP,1675885437
86,cap-aux-meules,47.3821,-61.8597,-1.97,80,100,6.69,CA,1675885437
87,yulara,-25.2406,130.9889,27.09,43,5,3.07,AU,1675885438
88,mandera,3.9366,41.867,30.04,28,42,5.12,KE,1675885438
89,vao,-22.6667,167.4833,25.76,82,100,9.14,NC,1675885439
90,honiara,-9.4333,159.95,25.84,87,100,1.86,SB,1675885439
91,hithadhoo,-0.6,73.0833,27.38,74,35,3.6,MV,1675885440
92,nikolskoye,59.7035,30.7861,1.0,93,100,3.26,RU,1675885251
93,xuddur,4.1213,43.8894,26.03,37,9,4.45,SO,1675885441
94,solnechnyy,50.7214,136.6319,-27.84,98,100,1.3,RU,1675885441
95,bredasdorp,-34.5322,20.0403,19.9,77,0,7.03,ZA,1675885442
96,dikson,73.5069,80.5464,-16.02,77,100,5.44,RU,1675885444
97,hobyo,5.3505,48.5268,24.78,86,6,5.43,SO,1675885445
98,bluff,-46.6,168.3333,9.33,65,72,10.21,NZ,1675885447
99,zhezkazgan,47.8043,67.7144,-15.78,94,97,7.02,KZ,1675885196
100,port lincoln,-34.7333,135.8667,18.53,81,0,4.38,AU,1675885451
101,sandpoint,48.2766,-116.5533,4.47,74,75,3.6,US,1675885340
102,galle,6.0367,80.217,24.23,85,26,1.58,LK,1675885453
103,bafoulabe,13.8065,-10.8321,31.7,12,0,2.13,ML,1675885456
104,richards bay,-28.783,32.0377,23.21,93,94,5.03,ZA,1675885457
105,badhni kalan,30.6833,75.2833,10.98,57,66,2.16,IN,1675885459
106,mbini,1.574,9.6134,26.75,82,27,2.77,GQ,1675885462
107,ruidoso,33.3317,-105.673,4.42,34,0,7.2,US,1675885465
108,shelburne,44.0787,-80.2041,3.42,98,22,4.05,CA,1675885467
109,talnakh,69.4865,88.3972,-23.22,96,100,3.99,RU,1675885471
110,nantucket,41.2835,-70.0995,9.08,49,20,5.66,US,1675885343
111,lebu,-37.6167,-73.65,18.53,76,3,5.53,CL,1675885475
112,teya,60.3778,92.6267,-18.02,99,100,1.32,RU,1675885476
113,hofn,64.2539,-15.2082,-4.99,58,40,2.57,IS,1675885476
114,jackson,42.4165,-122.8345,12.08,72,0,2.06,US,1675885346
115,jiaonan,35.8786,119.9753,2.69,61,100,3.78,CN,1675885477
116,upernavik,72.7868,-56.1549,-32.32,84,15,2.49,GL,1675885477
117,naron,43.5167,-8.1528,12.0,85,0,5.26,ES,1675885478
118,kidderminster,52.3882,-2.25,5.24,82,80,2.96,GB,1675885478
119,atuona,-9.8,-139.0333,26.19,80,19,9.29,PF,1675885479
120,bilma,18.6853,12.9164,21.77,15,5,3.54,NE,1675885479
121,ust-tsilma,65.441,52.1498,-3.47,88,100,4.77,RU,1675885480
122,airai,-8.9266,125.4092,15.25,95,99,0.56,TL,1675885480
123,santa cruz,-17.8,-63.1667,32.03,58,40,5.14,BO,1675885439
124,panzhihua,26.5851,101.7128,8.65,51,0,0.54,CN,1675885481
125,lompoc,34.6391,-120.4579,22.23,39,0,1.54,US,1675885484
126,port elizabeth,-33.918,25.5701,20.73,83,0,1.54,ZA,1675885485
127,kodiak,57.79,-152.4072,-7.27,68,0,3.09,US,1675885417
128,huarmey,-10.0681,-78.1522,25.48,73,43,4.91,PE,1675885485
129,east london,-33.0153,27.9116,21.56,81,100,2.04,ZA,1675885486
130,saint-joseph,-21.3667,55.6167,25.21,82,36,5.48,RE,1675885486
131,saint-philippe,-21.3585,55.7679,25.77,84,59,5.44,RE,1675885487
132,beira,-19.8436,34.8389,25.22,90,100,2.48,MZ,1675885487
133,kampong thum,12.7111,104.8887,25.21,71,50,2.42,KH,1675885488
134,pinsk,52.1229,26.0951,-6.21,89,70,1.8,BY,1675885467
135,tefe,-3.3542,-64.7114,30.06,79,40,2.06,BR,1675885488
136,launceston,-41.45,147.1667,13.67,86,100,3.09,AU,1675885489
137,longyearbyen,78.2186,15.6401,-4.09,80,75,7.2,SJ,1675885489
138,palu,-0.8917,119.8707,23.83,91,100,0.99,ID,1675885490
139,narsaq,60.9167,-46.05,-11.88,95,100,3.87,GL,1675885490
140,tuatapere,-46.1333,167.6833,9.04,85,94,4.52,NZ,1675885491
141,lagoa,39.05,-27.9833,13.6,61,52,6.05,PT,1675885491
142,esna,25.2934,32.554,12.01,34,96,4.05,EG,1675885492
143,vanavara,60.34,102.2797,-17.68,99,100,1.01,RU,1675885492
144,cayenne,4.9333,-52.3333,28.02,78,75,6.17,GF,1675885493
145,hualmay,-11.0964,-77.6139,25.65,70,48,5.2,PE,1675885493
146,torbay,47.6666,-52.7314,0.77,96,100,8.23,CA,1675885493
147,svobodnyy,51.4,128.1333,-33.19,100,14,0.42,RU,1675885494
148,hasaki,35.7333,140.8333,4.22,51,4,8.92,JP,1675885494
149,kaitangata,-46.2817,169.8464,9.41,75,66,5.9,NZ,1675885494
150,ratnagiri,16.9833,73.3,23.79,49,21,1.48,IN,1675885495
151,jacksonville,30.3322,-81.6556,28.36,54,75,4.63,US,1675885415
152,ribeira grande,38.5167,-28.7,13.22,62,20,3.13,PT,1675885426
153,bayir,37.2687,28.2167,2.29,58,5,3.05,TR,1675885495
154,vaini,-21.2,-175.2,26.09,94,75,1.54,TO,1675885496
155,tromso,69.6496,18.957,5.01,75,75,17.49,NO,1675885496
156,adrar,20.5022,-10.0711,20.84,15,100,3.77,MR,1675885496
157,pevek,69.7008,170.3133,-33.58,100,100,3.43,RU,1675885497
158,necochea,-38.5473,-58.7368,23.93,54,0,4.6,AR,1675885497
159,vila franca do campo,37.7167,-25.4333,13.23,69,88,4.85,PT,1675885498
160,russell,32.3502,-85.1999,26.22,47,40,3.09,US,1675885498
161,bell ville,-32.6259,-62.6887,40.94,12,29,0.53,AR,1675885499
162,turukhansk,65.8167,87.9833,-21.92,99,100,2.42,RU,1675885499
163,tommot,58.9564,126.2925,-28.53,99,100,0.89,RU,1675885500
164,butaritari,3.0707,172.7902,26.53,85,94,8.92,KI,1675885500
165,celestun,20.8667,-90.4,29.74,56,15,0.79,MX,1675885500
166,kahului,20.8947,-156.47,25.47,68,75,6.69,US,1675885432
167,klaksvik,62.2266,-6.589,3.51,62,85,13.85,FO,1675885501
168,daru,-9.0763,143.2092,24.53,92,100,5.4,PG,1675885504
169,viedma,-40.8135,-62.9967,28.84,22,60,5.16,AR,1675885505
170,glendive,47.1053,-104.7125,7.79,57,0,8.23,US,1675885506
171,wlodawa,51.55,23.55,-7.25,86,14,2.41,PL,1675885520
172,kiruna,67.8557,20.2251,0.51,64,100,13.38,SE,1675885521
173,lima,-12.0432,-77.0282,24.14,78,20,3.09,PE,1675885276
174,aklavik,68.2191,-135.0107,-29.0,76,75,1.54,CA,1675885522
175,mumford,5.2618,-0.759,26.63,81,100,2.9,GH,1675885524
176,grand gaube,-20.0064,57.6608,26.32,78,8,2.24,MU,1675885526
177,vagur,61.4732,-6.8119,3.82,61,99,16.6,FO,1675885530
178,arraial do cabo,-22.9661,-42.0278,27.98,74,40,4.63,BR,1675885530
179,tuy hoa,13.0833,109.3,22.15,92,100,0.47,VN,1675885532
180,muravlenko,63.7898,74.523,-15.0,94,100,8.24,RU,1675885388
181,ashland,40.8167,-82.2665,9.04,75,100,2.4,US,1675885534
182,flinders,-34.5833,150.8552,20.1,94,99,2.68,AU,1675885534
183,orlik,52.5178,99.825,-25.19,96,98,1.18,RU,1675885535
184,port blair,11.6667,92.75,24.26,73,65,3.63,IN,1675885535
185,havoysund,70.9963,24.6622,4.13,76,100,15.47,NO,1675885536
186,kawalu,-7.3817,108.2082,22.53,95,100,0.38,ID,1675885536
187,twentynine palms,34.1356,-116.0542,19.4,20,0,0.45,US,1675885537
188,indianola,41.3581,-93.5574,9.95,48,79,1.34,US,1675885510
189,sydney,-33.8679,151.2073,20.4,91,75,4.63,AU,1675884924
190,sitka,57.0531,-135.33,2.94,81,20,2.57,US,1675885538
191,arlit,18.7369,7.3853,26.1,13,2,2.83,NE,1675885539
192,provideniya,64.3833,-173.3,-27.94,95,92,1.76,RU,1675885540
193,butajira,8.1167,38.3667,15.38,43,4,3.66,ET,1675885541
194,gravelbourg,49.8834,-106.5512,0.15,93,54,5.16,CA,1675885541
195,badou,7.5833,0.6,27.65,49,100,2.12,TG,1675885542
196,fillmore,43.6666,-92.1002,6.27,60,0,5.66,US,1675885542
197,carnarvon,-24.8667,113.6333,25.59,75,7,6.6,AU,1675885542
198,kribi,2.95,9.9167,26.79,84,99,3.66,CM,1675885543
199,koungou,-12.7336,45.2042,27.84,78,0,2.06,YT,1675885543
200,bengkulu,-3.8004,102.2655,23.67,86,85,2.28,ID,1675885543
201,conde,-7.2597,-34.9075,29.7,58,20,7.2,BR,1675885544
202,tautira,-17.7333,-149.15,26.52,75,20,3.72,PF,1675885544
203,nukus,42.4531,59.6103,-5.01,86,100,9.26,UZ,1675885545
204,hami,42.8,93.45,0.05,57,1,2.91,CN,1675885545
205,luderitz,-26.6481,15.1594,17.79,93,0,6.71,NA,1675885545
206,dovolnoye,54.4958,79.6671,-25.5,100,100,1.11,RU,1675885546
207,port-cartier,50.0334,-66.8654,-2.88,71,2,6.6,CA,1675885546
208,ponta do sol,32.6667,-17.1,15.35,71,64,2.86,PT,1675885547
209,mwinilunga,-11.7358,24.4293,15.96,93,100,1.8,ZM,1675885547
210,polunochnoye,60.8697,60.4153,-15.56,92,56,2.56,RU,1675885547
211,saskylakh,71.9167,114.0833,-38.23,100,92,2.56,RU,1675885548
212,severo-kurilsk,50.6789,156.125,-5.99,74,94,4.81,RU,1675885548
213,clearwater,27.9659,-82.8001,28.39,50,0,4.12,US,1675885332
214,campana,-34.1687,-58.9591,28.9,18,87,3.06,AR,1675885549
215,kieta,-6.2167,155.6333,26.43,85,100,2.85,PG,1675885549
216,ponta delgada,37.7333,-25.6667,13.4,58,75,6.17,PT,1675885549
217,pontianak,-0.0333,109.3333,22.99,100,40,0.51,ID,1675885550
218,bamiantong,44.9333,130.5333,-21.71,99,17,1.62,CN,1675885550
219,malangali,-8.5667,34.85,16.73,95,100,1.7,TZ,1675885551
220,alta gracia,-31.6529,-64.4283,25.43,48,29,2.38,AR,1675885551
221,north vernon,39.0062,-85.6236,12.84,58,100,2.37,US,1675885318
222,macapa,0.0389,-51.0664,30.99,70,20,5.66,BR,1675885552
223,lamu,-2.2717,40.902,26.12,86,7,6.28,KE,1675885553
224,abu dhabi,24.4667,54.3667,21.06,75,0,4.63,AE,1675885553
225,pandan,14.0453,124.1694,25.08,75,100,4.84,PH,1675885554
226,terney,45.0503,136.6092,-14.19,72,1,3.24,RU,1675885554
227,kousseri,12.0769,15.0306,25.98,17,100,2.57,CM,1675885554
228,anadyr,64.75,177.4833,-33.72,68,0,4.0,RU,1675885555
229,hamilton,39.1834,-84.5333,13.3,50,75,3.09,US,1675885555
230,kashi,39.4547,75.9797,0.56,59,99,4.0,CN,1675885556
231,ketchikan,55.3422,-131.6461,3.99,93,100,3.09,US,1675885383
232,thompson,55.7435,-97.8558,-4.91,80,75,3.09,CA,1675885556
233,pawai,24.2667,80.1667,15.65,36,0,0.84,IN,1675885556
234,usak,38.5,29.4167,-4.65,76,9,2.68,TR,1675885557
235,port moresby,-9.4431,147.1797,22.68,100,75,2.57,PG,1675885557
236,souillac,-20.5167,57.5167,26.21,83,75,3.6,MU,1675885558
237,perry hall,39.4126,-76.4636,17.56,30,0,6.17,US,1675885558
238,codrington,-38.2667,141.9667,11.82,91,0,2.57,AU,1675885559
239,hay river,60.8156,-115.7999,-15.02,71,20,2.06,CA,1675885559
240,chifeng,42.2683,118.9636,-6.39,35,100,1.02,CN,1675885560
241,aksu,41.1231,80.2644,-4.36,82,75,2.67,CN,1675885560
242,sirawai,7.5854,122.1407,24.27,84,100,1.01,PH,1675885561
243,tari,12.4086,4.4914,27.73,11,91,4.7,NG,1675885561
244,quimper,48.0,-4.1,6.32,75,0,2.57,FR,1675885485
245,biu,10.6129,12.1946,25.02,15,83,4.46,NG,1675885563
246,okhotsk,59.3833,143.3,-28.96,84,61,5.14,RU,1675885566
247,pacific grove,36.6177,-121.9166,18.01,57,0,7.6,US,1675885567
248,tura,25.5198,90.2201,15.2,61,2,1.6,IN,1675885497
249,luganville,-15.5333,167.1667,25.8,87,100,3.53,VU,1675885572
250,georgetown,5.4112,100.3354,26.96,94,20,1.03,MY,1675885492
251,whitehorse,60.7161,-135.0538,-7.33,72,20,4.63,CA,1675885575
252,san andres,12.5847,-81.7006,29.01,65,40,6.69,CO,1675885540
253,college,64.8569,-147.8028,-15.79,83,100,0.0,US,1675885337
254,santa helena de goias,-17.8136,-50.5969,28.69,64,97,0.77,BR,1675885579
255,zaltan,32.947,11.8665,13.1,80,100,1.19,LY,1675885580
256,charters towers,-20.1,146.2667,22.75,86,99,4.48,AU,1675885581
257,jiayuguan,39.8167,98.3,-3.65,62,0,1.83,CN,1675885582
258,dali,25.7,100.1833,3.58,67,0,2.25,CN,1675885584
259,odoyev,53.9393,36.6864,-7.71,95,100,3.52,RU,1675885587
260,marawi,7.9986,124.2928,19.62,95,100,0.28,PH,1675885597
261,barrow,71.2906,-156.7887,-25.99,76,100,0.0,US,1675885602
262,shitanjing,39.2342,106.3439,-5.05,82,80,2.01,CN,1675885603
263,tambo grande,-4.9269,-80.3447,35.96,33,44,3.47,PE,1675885603
264,araouane,18.9048,-3.5265,23.81,15,4,4.88,ML,1675885604
265,lalin,42.7167,-8.1167,9.03,94,0,1.49,ES,1675885604
266,luoyang,34.6836,112.4536,1.6,98,100,2.96,CN,1675885604
267,junagarh,19.8667,82.9333,18.46,34,27,0.83,IN,1675885605
268,vila velha,-20.3297,-40.2925,27.97,74,20,1.54,BR,1675885592
269,los llanos de aridane,28.6585,-17.9182,14.86,72,75,2.57,ES,1675885605
270,faya,18.3851,42.4509,13.06,70,99,1.54,SA,1675885606
271,warangal,18.0,79.5833,22.09,32,100,1.22,IN,1675885606
272,praia da vitoria,38.7333,-27.0667,13.14,88,75,6.23,PT,1675885606
273,borodino,55.9106,94.8983,-12.94,98,100,1.01,RU,1675885607
274,mayumba,-3.432,10.6554,26.24,87,61,3.44,GA,1675885607
275,saldanha,-33.0117,17.9442,19.79,78,58,7.37,ZA,1675885608
276,tupik,54.4253,119.9327,-23.14,96,100,0.58,RU,1675885608
277,salalah,17.0151,54.0924,24.05,64,0,1.54,OM,1675885608
278,changji,44.0167,87.3167,-8.56,92,100,2.0,CN,1675885609
279,villazon,-22.0866,-65.5942,14.3,54,94,5.97,BO,1675885609
280,qandala,11.472,49.8728,24.1,82,58,1.71,SO,1675885610
281,topchanchi,23.9,86.2,15.97,38,0,2.61,IN,1675885610
282,salamanca,40.8333,-6.0,5.0,86,0,3.96,ES,1675885611
283,cherskiy,68.75,161.3,-32.37,98,100,3.52,RU,1675885611
284,lahaina,20.8783,-156.6825,25.45,70,24,8.86,US,1675885611
285,ternate,0.8,127.4,24.8,83,99,3.23,ID,1675885612
286,mareeba,-17.0,145.4333,23.58,92,68,1.24,AU,1675885612
287,cidreira,-30.1811,-50.2056,26.39,76,0,7.21,BR,1675885613
288,great yarmouth,52.6083,1.7305,2.26,77,18,6.02,GB,1675885447
289,chapais,49.7834,-74.8492,-14.12,86,100,4.04,CA,1675885613
290,broken hill,-31.95,141.4333,22.36,23,0,1.39,AU,1675885614
291,lazaro cardenas,17.9583,-102.2,28.14,59,0,4.43,MX,1675885614
292,puerto maldonado,-12.6,-69.1833,22.22,88,75,2.06,PE,1675885614
293,fortuna,40.5982,-124.1573,11.63,86,75,0.45,US,1675885615
294,yar-sale,66.8333,70.8333,-9.03,94,40,7.45,RU,1675885615
295,itajuipe,-14.6781,-39.375,29.44,57,12,3.2,BR,1675885616
296,svetlaya,46.5389,138.3297,-16.38,69,1,2.24,RU,1675885616
297,ulladulla,-35.35,150.4667,18.54,96,100,3.39,AU,1675885617
298,yerbogachen,61.2767,108.0108,-21.78,98,100,2.13,RU,1675885617
299,sungaipenuh,-2.0833,101.3833,16.97,85,100,0.69,ID,1675885619
300,saint augustine,29.8947,-81.3145,26.12,67,0,5.14,US,1675885392
301,kuah,6.3265,99.8432,26.99,74,20,1.03,MY,1675885619
302,mweka,-4.85,21.5667,19.77,94,100,1.14,CD,1675885620
303,avera,33.194,-82.5271,24.1,62,100,3.13,US,1675885620
304,queenstown,-31.8976,26.8753,15.15,96,100,2.22,ZA,1675885621
305,laguna,38.421,-121.4238,16.67,67,0,0.89,US,1675885622
306,alakurtti,66.9672,30.3491,-0.05,85,100,6.37,RU,1675885622
307,mae hong son,19.3003,97.9685,13.66,41,2,0.71,TH,1675885623
308,palasa,18.7667,84.4167,20.2,90,56,2.62,IN,1675885624
309,eyl,7.9803,49.8164,23.69,82,26,5.17,SO,1675885624
310,alugan,12.2188,125.4808,25.13,85,100,6.45,PH,1675885627
311,yurimaguas,-5.9,-76.0833,32.09,58,40,2.06,PE,1675885629
312,san patricio,28.017,-97.5169,15.6,79,100,7.31,US,1675885630
313,erenhot,43.6475,111.9767,-6.43,46,100,2.72,CN,1675885631
314,tessalit,20.1986,1.0114,23.4,16,5,4.73,ML,1675885632
315,kavaratti,10.5669,72.642,26.31,76,91,3.96,IN,1675885633
316,hohhot,40.8106,111.6522,-2.84,93,75,2.0,CN,1675885635
317,aviles,43.5547,-5.9248,9.96,87,20,2.06,ES,1675885635
318,chernyshevskiy,63.0128,112.4714,-45.4,100,85,0.9,RU,1675885638
319,gao,16.6362,1.637,27.27,10,27,4.78,ML,1675885510
320,jiazi,22.8779,116.067,16.37,89,100,7.95,CN,1675885639
321,coquimbo,-29.9533,-71.3436,21.85,68,0,5.66,CL,1675885390
322,sakaiminato,35.55,133.2333,4.99,93,75,1.54,JP,1675885641
323,ilam,26.9167,87.9167,11.1,72,15,1.57,NP,1675885641
324,nara,34.6851,135.8049,2.73,67,18,2.0,JP,1675885610
325,porto novo,6.4965,2.6036,28.9,79,70,3.89,BJ,1675885643
326,tatawin,32.9297,10.4518,10.48,88,78,8.59,TN,1675885644
327,caravelas,-17.7125,-39.2481,27.41,69,56,4.43,BR,1675885645
328,golspie,57.9727,-3.978,4.08,84,40,4.63,GB,1675885648
329,baisha,26.5222,110.9311,9.43,98,100,1.22,CN,1675885649
330,asosa,10.0667,34.5333,19.9,35,0,1.66,ET,1675885651
331,mount gambier,-37.8333,140.7667,11.94,89,5,2.02,AU,1675885465
332,chicomuselo,15.7667,-92.2667,33.73,22,0,2.05,MX,1675885652
333,rio gallegos,-51.6226,-69.2181,26.03,25,75,15.95,AR,1675885362
334,xiaoyi,34.6178,109.703,2.79,78,100,1.25,CN,1675885653
335,sao filipe,14.8961,-24.4956,20.92,72,32,5.41,CV,1675885654
336,darhan,49.4867,105.9228,-23.98,100,83,1.82,MN,1675885654
337,qaqortoq,60.7167,-46.0333,-3.56,93,100,2.59,GL,1675885596
338,cavalcante,-13.7975,-47.4583,27.27,60,86,0.95,BR,1675885656
339,meyzieu,45.7667,5.0,4.5,73,0,1.54,FR,1675885656
340,almaznyy,48.0448,40.045,-10.4,94,6,4.07,RU,1675885657
341,kedrovyy,56.1667,91.8167,-16.74,99,99,1.45,RU,1675885658
342,ilulissat,69.2167,-51.1,-21.99,59,0,1.54,GL,1675885659
343,tornio,65.8481,24.1466,1.01,89,100,10.88,FI,1675885659
344,pindorama,-21.1858,-48.9072,27.53,69,75,2.62,BR,1675885660
345,ahipara,-35.1667,173.1667,19.34,73,3,3.69,NZ,1675885660
346,ailigandi,9.2333,-78.0167,26.96,83,44,5.34,PA,1675885660
347,suharau,48.1333,26.4167,-4.64,77,7,1.31,RO,1675885661
348,maniitsoq,65.4167,-52.9,-11.51,67,100,5.13,GL,1675885661
349,olafsvik,64.8945,-23.7142,-3.58,75,100,13.84,IS,1675885662
350,knezica,45.1028,16.6775,-2.91,80,52,1.78,BA,1675885662
351,bazarnyye mataki,54.8833,49.9333,-7.11,95,100,4.8,RU,1675885663
352,denpasar,-8.65,115.2167,26.81,88,75,2.06,ID,1675885647
353,vysokyy,49.8906,36.12,-8.13,89,7,2.13,UA,1675885663
354,maningrida,-12.0667,134.2667,26.0,89,100,3.91,AU,1675885663
355,barcelona,41.3888,2.159,9.86,77,40,6.17,ES,1675885480
356,svetlyy,54.675,20.1347,0.03,82,58,6.4,RU,1675885664
357,slupsk,54.4641,17.0287,-3.08,79,19,5.06,PL,1675885664
358,komsomolskiy,40.4272,71.7189,3.4,81,100,4.12,UZ,1675885665
359,comodoro rivadavia,-45.8667,-67.5,32.92,16,0,9.26,AR,1675885497
360,gurupi,-11.7292,-49.0686,29.54,64,84,0.89,BR,1675885665
361,geraldton,-28.7667,114.6,20.23,83,0,4.12,AU,1675885666
362,bairiki,1.3292,172.9752,27.0,83,40,7.2,KI,1675885667
363,roswell,34.0232,-84.3616,22.62,60,100,3.6,US,1675885559
364,ketou,7.3633,2.5998,28.56,65,100,4.11,BJ,1675885668
365,kamenka,51.3223,42.7678,-15.22,98,77,2.28,RU,1675885668
366,kidodi,-7.6036,37.0044,22.42,97,100,1.43,TZ,1675885669
367,sao jose da coroa grande,-8.8978,-35.1478,27.23,69,85,3.55,BR,1675885669
368,kropotkin,45.4375,40.5756,-5.82,89,100,6.15,RU,1675885670
369,jacareacanga,-6.2222,-57.7528,28.12,87,24,1.45,BR,1675885670
370,isangel,-19.55,169.2667,24.69,95,100,2.36,VU,1675885671
371,sapouy,11.5544,-1.7736,28.7,14,10,2.51,BF,1675885671
372,kangaatsiaq,68.3065,-53.4641,-28.33,87,5,5.53,GL,1675885672
373,trat,12.5,102.5,27.15,93,3,0.73,TH,1675885672
374,pemangkat,1.1667,108.9667,24.51,90,57,1.41,ID,1675885672
375,lorengau,-2.0226,147.2712,24.11,89,100,3.19,PG,1675885673
376,zhigalovo,54.8097,105.1578,-23.85,100,100,0.57,RU,1675885673
377,ridgecrest,35.6225,-117.6709,17.6,22,0,0.45,US,1675885674
378,camacha,33.0833,-16.3333,13.68,58,75,6.17,PT,1675885674
379,bowen,-20.0167,148.2333,25.66,83,100,7.55,AU,1675885674
380,kavieng,-2.5744,150.7967,27.14,78,100,4.0,PG,1675885675
381,inuvik,68.3499,-133.7218,-28.44,76,75,1.03,CA,1675885509
382,ambon,-3.6954,128.1814,24.08,94,40,1.54,ID,1675885675
383,chumikan,54.7183,135.315,-31.02,88,69,6.6,RU,1675885675
384,mirabad,30.4362,61.8383,21.0,37,100,7.72,AF,1675885676
385,pangnirtung,66.1451,-65.7125,-29.0,63,0,2.06,CA,1675885676
386,vadso,70.0744,29.7487,3.09,70,40,13.89,NO,1675885677
387,northam,51.0333,-4.2167,7.01,83,94,4.3,GB,1675885677
388,los aquijes,-14.0967,-75.6908,32.64,38,4,5.95,PE,1675885657
389,cocobeach,1.0002,9.5823,27.02,81,6,3.49,GA,1675885678
390,obo,5.3998,26.4869,23.38,17,38,2.46,CF,1675885678
391,haines junction,60.7522,-137.5108,-12.03,85,96,1.03,CA,1675885679
392,beringovskiy,63.05,179.3167,-33.63,97,27,2.38,RU,1675885679
393,gouyave,12.1646,-61.7296,26.43,78,75,8.23,GD,1675885679
394,gamba,-2.65,10.0,26.15,88,95,3.06,GA,1675885680
395,moerai,-22.4333,-151.3333,26.54,73,71,6.35,PF,1675885680
396,bakchar,57.0186,82.0711,-25.68,100,100,1.14,RU,1675885681
397,black river,18.0264,-77.8487,28.42,60,21,6.11,JM,1675885681
398,kaseda,31.4167,130.3167,10.28,62,64,2.69,JP,1675885682
399,keffi,8.8486,7.8736,29.68,16,40,1.1,NG,1675885684
400,magdagachi,53.45,125.8,-33.06,99,30,0.5,RU,1675885685
401,atbasar,51.8,68.3333,-25.2,100,46,2.4,KZ,1675885686
402,larsnes,62.2028,5.5773,8.9,73,100,15.54,NO,1675885687
403,galveston,29.3669,-94.9669,27.03,89,100,4.63,US,1675885687
404,zunheboto,25.9667,94.5167,7.8,70,36,1.25,IN,1675885689
405,sahuaripa,29.05,-109.2333,20.64,13,2,2.79,MX,1675885690
406,arman,59.7,150.1667,-28.43,85,54,3.94,RU,1675885692
407,melton,-37.6833,144.5833,15.16,93,61,1.79,AU,1675885695
408,chokurdakh,70.6333,147.9167,-34.83,98,100,2.33,RU,1675885696
409,haian,32.5436,120.45,7.22,99,100,5.18,CN,1675885698
410,te anau,-45.4167,167.7167,8.97,72,95,0.63,NZ,1675885699
411,bismarck,46.8083,-100.7837,5.24,68,0,4.12,US,1675885700
412,petropavlovsk-kamchatskiy,53.0452,158.6483,-19.57,84,40,2.0,RU,1675885701
413,mabaruma,8.2,-59.7833,27.98,62,85,3.21,GY,1675885702
414,kungurtug,50.5994,97.5228,-17.05,94,100,0.44,RU,1675885704
415,miri,4.4148,114.0089,25.08,94,40,1.03,MY,1675885441
416,sabha,27.0377,14.4283,17.37,21,38,6.13,LY,1675885707
417,hecun,36.5333,114.1111,0.32,83,100,1.54,CN,1675885709
418,fort nelson,58.8053,-122.7002,-10.03,69,40,2.24,CA,1675885712
419,half moon bay,37.4636,-122.4286,18.08,74,0,6.17,US,1675885591
420,teahupoo,-17.8333,-149.2667,25.98,74,22,3.76,PF,1675885714
421,dukat,62.55,155.55,-40.53,100,83,1.65,RU,1675885714
422,las vegas,36.175,-115.1372,17.56,29,0,2.06,US,1675885575
423,werda,-25.2667,23.2833,23.92,55,12,1.79,BW,1675885715
424,yerofey pavlovich,53.9667,121.9667,-27.22,99,94,0.5,RU,1675885716
425,sorong,-0.8833,131.25,25.56,87,100,6.78,ID,1675885716
426,manta,-0.95,-80.7333,29.88,70,40,5.14,EC,1675885686
427,kattivakkam,13.2167,80.3167,24.05,72,100,2.81,IN,1675885717
428,ballina,-28.8667,153.5667,18.9,99,76,3.51,AU,1675885718
429,gourcy,13.2167,-2.35,29.25,12,59,4.21,BF,1675885718
430,neiafu,-18.65,-173.9833,26.38,83,75,1.03,TO,1675885718
431,nouakchott,18.0858,-15.9785,23.96,28,100,4.91,MR,1675885506
432,vestmannaeyjar,63.4427,-20.2734,-0.33,54,100,19.66,IS,1675885719
433,sorland,67.667,12.6934,6.92,90,100,24.65,NO,1675885720
434,concarneau,47.875,-3.9225,6.44,82,0,3.52,FR,1675885573
435,chanika,-5.4167,38.0167,20.42,98,97,1.92,TZ,1675885720
436,anchorage,61.2181,-149.9003,-5.04,89,100,2.57,US,1675885589
437,san cristobal,7.7669,-72.225,25.1,42,33,2.33,VE,1675885721
438,sisophon,13.5859,102.9737,26.36,71,45,2.76,KH,1675885721
439,marystown,47.1666,-55.1483,-1.82,89,98,5.7,CA,1675885610
440,valmiera,57.5411,25.4275,0.65,90,100,4.56,LV,1675885722
441,gizo,-8.103,156.8419,27.8,78,100,5.46,SB,1675885722
442,blagoveshchenka,52.8333,79.8667,-23.85,100,100,1.53,RU,1675885722
443,cascais,38.6979,-9.4215,12.74,70,20,6.71,PT,1675885580
444,jati,24.3539,68.2671,20.74,61,2,4.06,PK,1675885723
445,kiama,-34.6833,150.8667,20.21,95,100,6.26,AU,1675885723
446,vostok,46.4856,135.8833,-24.12,99,100,1.87,RU,1675885712
447,baruun-urt,46.6806,113.2792,-14.13,90,100,2.35,MN,1675885724
448,uppsala,60.0,17.75,3.69,93,100,6.69,SE,1675885724
449,mitchell,43.7094,-98.0298,2.84,69,0,5.66,US,1675885518
450,plettenberg bay,-34.0527,23.3716,19.08,82,91,5.16,ZA,1675885724
451,majene,-3.5403,118.9707,26.22,75,100,3.12,ID,1675885725
452,anapolis,-16.3267,-48.9528,27.26,61,40,2.06,BR,1675885586
453,san quintin,30.4833,-115.95,18.09,30,7,3.23,MX,1675885726
454,yonezawa,37.9167,140.1167,0.07,83,91,6.2,JP,1675885631
455,kyabe,9.4515,18.9449,27.43,13,11,2.53,TD,1675885726
456,okha,53.5739,142.9478,-30.67,96,100,5.1,RU,1675885726
457,verkhniy tagil,57.3733,59.9556,-9.85,90,100,4.65,RU,1675885727
458,kharian,32.8149,73.8636,12.78,42,3,2.68,PK,1675885727
459,singapore,1.2897,103.8501,26.02,89,40,4.12,SG,1675885728
460,severnyy,50.677,36.5532,-11.98,92,25,2.0,RU,1675885728
461,casambalangan,18.3765,122.1274,23.6,87,61,4.57,PH,1675885728
462,butterworth,5.3991,100.3638,27.02,94,20,1.03,MY,1675885729
463,bubaque,11.2833,-15.8333,24.21,70,5,5.67,GW,1675885729
464,chitrakonda,18.1167,82.0833,17.35,55,72,1.13,IN,1675885730
465,tholos,40.9999,23.7823,-0.98,46,6,1.07,GR,1675885730
466,lacarak,45.0022,19.5686,-1.7,64,7,3.57,RS,1675885730
467,sungai pelek,2.6449,101.717,25.87,94,40,0.0,MY,1675885731
468,lundazi,-12.2929,33.1782,17.41,94,82,2.37,ZM,1675885731
469,fort morgan,40.2503,-103.8,0.36,86,0,3.09,US,1675885589
470,esperance,-33.8667,121.9,19.02,72,100,5.45,AU,1675885730
471,egvekinot,66.3167,-179.1667,-26.88,94,100,2.29,RU,1675885732
472,watsa,3.0372,29.5355,21.53,30,19,0.39,CD,1675885732
473,lieksa,63.3167,30.0167,0.67,89,100,7.92,FI,1675885733
474,torres,-29.3353,-49.7269,28.79,73,2,5.58,BR,1675885538
475,policoro,40.2115,16.6726,5.55,56,100,1.34,IT,1675885733
476,mircea voda,44.2833,28.1667,-4.65,74,68,5.42,RO,1675885734
477,konotop,51.2403,33.2026,-8.19,92,89,2.19,UA,1675885734
478,udachnyy,66.4167,112.4,-37.53,65,100,2.04,RU,1675885734
479,moyobamba,-6.05,-76.9667,23.7,85,85,1.12,PE,1675885735
480,pokhara,28.2333,83.9833,13.2,49,53,1.54,NP,1675885735
481,samarai,-10.6167,150.6667,26.04,87,100,6.83,PG,1675885736
482,tikrit,34.6071,43.6782,6.18,76,89,1.76,IQ,1675885737
483,ust-shonosha,61.1531,41.343,-8.17,97,70,1.96,RU,1675885738
484,portland,45.5234,-122.6762,11.01,81,40,4.12,US,1675885156
485,srednekolymsk,67.45,153.6833,-33.1,97,100,2.9,RU,1675885739
486,ilhabela,-23.7781,-45.3581,25.7,79,33,1.94,BR,1675885739
487,uruguaiana,-29.7547,-57.0883,38.96,29,40,6.17,BR,1675885531
488,severnoye,56.3491,78.3619,-27.19,100,100,1.27,RU,1675885740
489,tonota,-21.4833,27.4833,24.08,55,69,3.01,BW,1675885740
490,san remigio,11.0809,123.9381,24.57,85,100,5.12,PH,1675885741
491,graham,47.0529,-122.2943,8.3,77,75,2.57,US,1675885741
492,balikpapan,-1.2675,116.8289,23.55,83,75,2.06,ID,1675885744
493,oranjemund,-28.55,16.4333,17.69,97,33,1.97,NA,1675885748
494,perigueux,45.1833,0.7167,4.49,76,0,0.89,FR,1675885752
495,bonthe,7.5264,-12.505,25.46,78,53,4.05,SL,1675885753
496,praia,14.9215,-23.5087,21.3,68,75,7.2,CV,1675885757
497,port-gentil,-0.7193,8.7815,27.98,83,20,2.57,GA,1675885665
498,cordoba,-31.4135,-64.1811,26.47,50,40,4.63,AR,1675885761
499,murighiol,45.0333,29.1667,-4.73,65,11,5.54,RO,1675885764
500,leningradskiy,69.3833,178.4167,-29.91,94,100,1.93,RU,1675885610
501,altay,47.8667,88.1167,-8.52,72,98,3.02,CN,1675885772
502,parabel,58.6978,81.4825,-28.25,100,86,1.81,RU,1675885775
503,kidal,18.4411,1.4078,27.78,11,30,3.29,ML,1675885781
504,durango,24.8333,-104.8333,17.25,15,66,4.45,MX,1675885207
505,khash,28.2211,61.2158,14.05,57,33,11.66,IR,1675885790
506,peniche,39.3558,-9.3811,12.27,76,93,10.16,PT,1675885790
507,montclair,40.8259,-74.209,12.43,41,0,5.14,US,1675885538
508,carberry,49.8689,-99.3602,-0.87,97,100,1.01,CA,1675885791
509,lazarev,52.225,141.5131,-33.5,100,67,2.02,RU,1675885792
510,topolobampo,25.6,-109.05,21.95,21,0,7.2,MX,1675885792
511,bintulu,3.1667,113.0333,24.23,94,20,1.54,MY,1675885792
512,hambantota,6.1241,81.1185,24.17,80,100,5.85,LK,1675885793
513,nome,64.5011,-165.4064,-18.96,84,100,1.54,US,1675885793
514,tambun,-6.2641,107.0712,26.69,71,100,3.61,ID,1675885794
515,salisbury,51.0693,-1.7957,3.23,86,23,2.06,GB,1675885689
516,mandalgovi,45.7625,106.2708,-11.34,95,100,1.65,MN,1675885794
517,varangaon,21.0167,75.9,20.68,21,4,2.18,IN,1675885795
518,alofi,-19.0595,-169.9187,27.94,89,88,3.09,NU,1675885795
519,harper,4.375,-7.7169,26.25,83,100,2.63,LR,1675885722
520,dunedin,-45.8742,170.5036,11.04,63,10,7.89,NZ,1675885638
521,songjianghe,42.1859,127.479,-17.09,93,7,1.97,CN,1675885795
522,kharp,66.8014,65.8081,-6.13,82,98,9.41,RU,1675885796
523,suhbaatar,50.2314,106.2078,-27.99,100,98,0.56,MN,1675885796
524,front royal,38.9182,-78.1944,19.69,30,0,1.54,US,1675885797
525,cockburn town,21.4612,-71.1419,25.34,77,0,9.0,TC,1675885760
526,ahmadpur east,29.1431,71.2598,18.36,28,54,3.2,PK,1675885797
527,krasnaya gorka,55.1962,56.6673,-12.45,96,100,2.57,RU,1675885797
528,amberley,39.2048,-84.428,12.92,49,75,2.57,US,1675885798
529,nouadhibou,20.931,-17.0347,19.99,60,40,7.72,MR,1675885798
530,ayan,56.45,138.1667,-28.74,80,84,3.26,RU,1675885799
531,batemans bay,-35.7167,150.1833,19.5,95,100,2.3,AU,1675885630
532,lodja,-3.4833,23.4333,21.17,98,100,1.09,CD,1675885800
533,san lorenzo,-25.3333,-57.5333,36.52,27,20,3.6,PY,1675885800
534,quang ngai,15.1167,108.8,21.28,94,44,1.76,VN,1675885800
535,namibe,-15.1961,12.1522,22.37,71,100,5.32,AO,1675885801
536,the valley,18.217,-63.0578,27.92,69,40,6.69,AI,1675885801
537,montepuez,-13.1256,38.9997,21.1,97,100,1.1,MZ,1675885803
538,namatanai,-3.6667,152.4333,26.18,81,100,0.65,PG,1675885804
539,port macquarie,-31.4333,152.9167,18.83,73,72,2.29,AU,1675885809
540,villa de reyes,21.8,-100.9333,25.29,18,2,1.48,MX,1675885813
541,rognedino,53.8015,33.5576,-7.15,95,100,3.5,RU,1675885816
542,bundaberg,-24.85,152.35,22.9,86,75,0.89,AU,1675885818
543,shiraz,29.6036,52.5388,5.69,49,94,3.09,IR,1675885820
544,salem,11.65,78.1667,20.82,72,67,1.84,IN,1675885708
